stop_id,stop_name,stop_desc,stop_lat,stop_lon,zone_id,stop_url
1,تجریش,,35.8046493,51.4335093,,
2,قيطريه,,35.7930714,51.4350618,,
3,شهيد صدر,,35.78519,51.4358526,,
4,قلهك,,35.772777,51.4379053,,
6,ملت,,35.6885533,51.4268282,,
7,امام خميني (ره),,35.6855252,51.4198854,,
8,قائم,,35.798773,51.5209852,,
9,شهيد محلاتي,,35.7979131,51.5081814,,
11,نوبنياد,,35.7907189,51.4786864,,
12,حسين آباد,,35.6864327,51.4101317,,
13,هروي,,35.772054,51.4732254,,
14,شهيد زين الدين,,35.7605385,51.4654896,,
15,خواجه عبداله انصاري,,35.7434507,51.4634475,,
16,شهيد صياد شيرازي,,35.7354136,51.4584267,,
17,شهيد قدوسي,,35.7315381,51.4444031000001,,
18,سهروردي,,35.7310672,51.4369868,,
19,شهيد بهشتي,,35.73101,51.427062,,
19,شهید بهشتی,,35.73101,51.427062,,
20,ميرزاي شيرازي,,35.7281169,51.4174563,,
22,ميدان وليعصر (عج),,35.7120335,51.4078708,,
24,ميدان انقلاب اسلامي,,35.7011848,51.3899904,,
25,دانشگاه امام علي(ع),,35.6872162,51.3993955,,
26,منیریه,,35.6810867,51.4015935,,
27,مهديه,,35.6670022,51.3995479,,
28,راه آهن,,35.6596113,51.3974172000001,,
29,جوادیه,,35.659153,51.3881421,,
31,شهرك شريعتي,,35.6443107,51.3692741,,
32,عبدل آباد,,35.6381381,51.3601512,,
33,نعمت آباد,,35.6338942,51.3470784,,
34,آزادگان,,35.6273361,51.3354909,,
35,فرهنگسرا,,35.7297558,51.5468003999999,,
36,تهرانپارس,,35.7310613,51.5317527,,
37,شهيد باقري,,35.7331523,51.5164231,,
38,دانشگاه علم وصنعت,,35.7346458,51.5050237,,
39,سرسبز,,35.7353546,51.4949258,,
40,جانبازان,,35.7334585,51.4846399000001,,
41,فدك,,35.7265325,51.4758128,,
42,سبلان,,35.7181958,51.464639,,
43,شهيد مدني,,35.7092221,51.453397,,
44,امام حسين (ع),,35.7021955,51.4457023,,
45,دروازه شميران,,35.699093,51.4377021,,
46,بهارستان,,35.6919063,51.4328109000001,,
47,حسن آباد,,35.6864327,51.4101317,,
48,ميدان حر,,35.6909978,51.3884408,,
49,شهيد نواب صفوي,,35.6944716,51.3792704,,
51,استاد معين,,35.7001252,51.3446147,,
52,دانشگاه شريف,,35.7058176,51.3536305,,
53,طرشت,,35.716168,51.3434464,,
54,صادقیه,,35.7175738,51.3309611,,
55,دكتر شريعتي,,35.7627055,51.4442311,,
56,ميرداماد,,35.7598263,51.4338193,,
57,شهيد حقاني,,35.7562669,51.4265943,,
58,شهيد همت,,35.7480611,51.4260131999999,,
59,مصلي امام خميني(ره),,35.7404024,51.4271576,,
60,شهيد مفتح,,35.7244751,51.427816,,
61,شهداي هفت تير,,35.7152371,51.4262939,,
62,طالقاني,,35.7071734,51.4255251,,
63,دروازه دولت,,35.7016147,51.4257388,,
64,سعدي,,35.6931923,51.4247519,,
65,پانزده خرداد,,35.6780033,51.4175338,,
66,خيام,,35.6732088,51.4168927000001,,
67,ميدان محمديه,,35.6681879,51.4160049,,
68,شوش,,35.657428,51.4141447,,
69,پايانه جنوب,,35.6507618,51.4163589,,
71,علي آباد,,35.6289074,51.4178848,,
72,جوانمرد قصاب,,35.6099677,51.4195328000001,,
73,شهرري,,35.5947979,51.4223459,,
74,پالايشگاه,,35.5597963,51.3994803,,
75,شاهد-باقرشهر,,35.5470446,51.3825799,,
76,حرم مطهر امام خميني (ره),,35.5450976,51.3729905,,
77,شهيد كلاهدوز,,35.6987856,51.5003386000001,,
78,نيرو هوايي,,35.6928446,51.4879129,,
79,نبرد,,35.6915953,51.4774669999999,,
80,پيروزي,,35.6910109,51.4679227,,
82,ميدان شهدا,,35.6904606,51.4476137,,
83,فردوسي,,35.7013151,51.4185099,,
84,توحيد,,35.7008494,51.3785666,,
85,دكتر حبيب‌اله,,35.7006812,51.3560434,,
86,ميدان آزادي,,35.701164,51.3332562000001,,
87,بيمه,,35.6996392,51.3202018,,
88,شهرك اكباتان,,35.7055443,51.3076596999999,,
89,ارم سبز,,35.7184395,51.3000913,,
89,ارم سبز,,35.7184395,51.3000913,,
90,ورزشگاه آزادي,,35.7172502,51.2840322,,
91,چيتگر,,35.7170663,51.2438641,,
92,ايران خودرو,,35.7253626,51.1967089,,
93,وردآورد,,35.74443,51.1510252000001,,
94,گرمدره,,35.7510542,51.0818013000001,,
95,اتمسفر,,35.7665658,51.046565,,
96,كرج,,35.7870444,51.0027053,,
97,محمد شهر,,35.8021398,50.9648283,,
98,گلشهر,,35.8248876,50.9330758,,
99,كهريزك,,35.5210251,51.3689107,,
103,زمـزم,,35.6525844,51.3733202999999,,
104,تئاتر شهر,,35.7010237,51.4053579,,
105,ميدان جهاد,,35.7206039,51.4082164,,
107,شهيد بخارائي,,35.6406916,51.4149648,,
108,شادمان,,35.7006233,51.3636892,,
109,ابن سينا,,35.6906115,51.4565438,,
110,شهر آفتاب,,35.5947979,51.4223459,,
111,پايانه 1و2 فرودگاه مهرآباد,,35.6958199,51.3241285,,
112,پايانه 4و6 فرودگاه مهرآباد,,35.6886552,51.3311257,,
113,ميدان صنعت,,35.7537958,51.3671515999999,,
114,كميل,,35.6804858,51.3798742,,
115,بسيج,,35.6667047,51.4908694000001,,
116,بريانك,,35.6731404,51.3808039,,
117,تربيت مدرس,,35.724157,51.3812711,,
118,فرودگاه امام خميني (ره),,35.4068735,51.1542374000001,,
119,رودكي,,35.6876201,51.3790893,,
120,هلال احمر,,35.6682271,51.3812971,,
121,دولت آباد,,35.6188892,51.4646132,,
122,بعثت,,35.6446845,51.4442717,,
123,مولوي,,35.6681563,51.4161789,,
